[{"department":"Antioquia","municipality":"Bol\u00c3\u00advar","code":"COXX00001","station":"El Trapiche","latitude":"5.8","longitude":"-76.01666666666667","altitude":"1277"},{"department":"Antioquia","municipality":"Cocorn\u00c3\u00a1","code":"COXX00002","station":"Cocorn\u00c3\u00a1","latitude":"6.066666666666666","longitude":"-75.18333333333334","altitude":"1344"},{"department":"Antioquia","municipality":"Jard\u00c3\u00adn","code":"COXX00003","station":"Miguel Valencia","latitude":"5.6","longitude":"-75.85","altitude":"1621"},{"department":"Antioquia","municipality":"T\u00c3\u00a1mesis","code":"COXX00004","station":"Virgen de Oro","latitude":"5.75","longitude":"-75.7","altitude":"1656"},{"department":"Antioquia","municipality":"T\u00c3\u00a1mesis","code":"COXX00005","station":"La Cristalina","latitude":"5.7","longitude":"-75.66666666666667","altitude":"775"},{"department":"Antioquia","municipality":"Venecia","code":"COXX00006","station":"El Rosario","latitude":"5.966666666666667","longitude":"-75.7","altitude":"1635"},{"department":"Boyac\u00c3\u00a1","municipality":"Moniquir\u00c3\u00a1","code":"COXX00007","station":"Bertha","latitude":"5.883333333333333","longitude":"-73.56666666666666","altitude":"1677"},{"department":"Caldas","municipality":"Chinchin\u00c3\u00a1","code":"COXX00008","station":"Cenicaf\u00c3\u00a9","latitude":"5.0","longitude":"-75.6","altitude":"1310"},{"department":"Caldas","municipality":"Chinchin\u00c3\u00a1","code":"COXX00009","station":"Naranjal","latitude":"4.966666666666667","longitude":"-75.65","altitude":"1381"},{"department":"Caldas","municipality":"Manizales","code":"COXX00010","station":"El Algarrobo","latitude":"5.066666666666666","longitude":"-75.58333333333333","altitude":"1202"},{"department":"Caldas","municipality":"Manizales","code":"COXX00011","station":"Almacaf\u00c3\u00a9 Letras","latitude":"5.05","longitude":"-75.33333333333333","altitude":"3684"},{"department":"Caldas","municipality":"Manizales","code":"COXX00012","station":"Planalto","latitude":"4.983333333333333","longitude":"-75.58333333333333","altitude":"1413"},{"department":"Caldas","municipality":"Marquetalia","code":"COXX00013","station":"Santa Helena","latitude":"5.316666666666666","longitude":"-75.0","altitude":"1395"},{"department":"Caldas","municipality":"Palestina","code":"COXX00014","station":"Granja Luker","latitude":"5.066666666666666","longitude":"-75.68333333333334","altitude":"1031"},{"department":"Caldas","municipality":"Palestina","code":"COXX00015","station":"Sant\u00c3\u00a1gueda","latitude":"5.066666666666666","longitude":"-75.66666666666667","altitude":"1026"},{"department":"Cauca","municipality":"El Tambo","code":"COXX00016","station":"Manuel Mej\u00c3\u00ada","latitude":"2.4","longitude":"-76.73333333333333","altitude":"1735"},{"department":"Cauca","municipality":"Piendam\u00c3\u00b3","code":"COXX00017","station":"La Trinidad","latitude":"2.75","longitude":"-76.58333333333333","altitude":"1671"},{"department":"Cesar","municipality":"Pueblo Bello","code":"COXX00018","station":"Pueblo Bello","latitude":"10.41666666666667","longitude":"-73.56666666666666","altitude":"1134"},{"department":"Cundinamarca","municipality":"Cachipay","code":"COXX00019","station":"Mesitas de Santa In\u00c3\u00a9s","latitude":"4.716666666666667","longitude":"-74.45","altitude":"1340"},{"department":"Cundinamarca","municipality":"El Colegio","code":"COXX00020","station":"Misiones","latitude":"4.55","longitude":"-74.43333333333334","altitude":"1540"},{"department":"Cundinamarca","municipality":"El Pe\u00c3\u00b1\u00c3\u00b3n","code":"COXX00021","station":"Santa Rosita","latitude":"5.266666666666667","longitude":"-74.28333333333333","altitude":"1437"},{"department":"Cundinamarca","municipality":"Sasaima","code":"COXX00022","station":"Santa B\u00c3\u00a1rbara","latitude":"4.933333333333334","longitude":"-74.41666666666667","altitude":"1478"},{"department":"Cundinamarca","municipality":"Tibacuy","code":"COXX00023","station":"Granja Tibacuy","latitude":"4.366666666666666","longitude":"-74.43333333333334","altitude":"1538"},{"department":"Cundinamarca","municipality":"Yacop\u00c3\u00ad","code":"COXX00024","station":"Montel\u00c3\u00adbano","latitude":"5.45","longitude":"-74.33333333333333","altitude":"1365"},{"department":"Huila","municipality":"Gigante","code":"COXX00025","station":"Jorge Villamil","latitude":"2.333333333333333","longitude":"-75.51666666666667","altitude":"1420"},{"department":"Magdalena","municipality":"Santa Marta","code":"COXX00026","station":"La Victoria","latitude":"11.13333333333333","longitude":"-74.1","altitude":"1100"},{"department":"Nari\u00c3\u00b1o","municipality":"Consac\u00c3\u00a1","code":"COXX00027","station":"Ospina P\u00c3\u00a9rez","latitude":"1.25","longitude":"-77.48333333333333","altitude":"1603"},{"department":"Nari\u00c3\u00b1o","municipality":"La Uni\u00c3\u00b3n","code":"COXX00028","station":"El Sauce","latitude":"1.616666666666667","longitude":"-77.11666666666666","altitude":"1609"},{"department":"Norte de Santander","municipality":"Chin\u00c3\u00a1cota","code":"COXX00029","station":"Blonay","latitude":"7.566666666666666","longitude":"-72.61666666666666","altitude":"1250"},{"department":"Norte de Santander","municipality":"Convenci\u00c3\u00b3n","code":"COXX00030","station":"Gabriel Mar\u00c3\u00ada Barriga","latitude":"8.416666666666666","longitude":"-73.33333333333333","altitude":"1261"},{"department":"Norte de Santander","municipality":"Salazar","code":"COXX00031","station":"Francisco Romero","latitude":"7.733333333333333","longitude":"-72.78333333333333","altitude":"903"},{"department":"Quind\u00c3\u00ado","municipality":"Buenavista","code":"COXX00032","station":"Paraguaicito","latitude":"4.4","longitude":"-75.73333333333333","altitude":"1203"},{"department":"Quind\u00c3\u00ado","municipality":"Calarc\u00c3\u00a1","code":"COXX00033","station":"La Bella","latitude":"4.5","longitude":"-75.66666666666667","altitude":"1449"},{"department":"Quind\u00c3\u00ado","municipality":"Montenegro","code":"COXX00034","station":"El Agrado","latitude":"4.516666666666667","longitude":"-75.8","altitude":"1275"},{"department":"Quind\u00c3\u00ado","municipality":"Pijao","code":"COXX00035","station":"La Esperanza","latitude":"4.3","longitude":"-75.73333333333333","altitude":"1667"},{"department":"Quind\u00c3\u00ado","municipality":"Quimbaya","code":"COXX00036","station":"Maracay","latitude":"4.6","longitude":"-75.73333333333333","altitude":"1402"},{"department":"Risaralda","municipality":"Gu\u00c3\u00a1tica","code":"COXX00037","station":"Ospirma","latitude":"5.333333333333333","longitude":"-75.81666666666666","altitude":"1661"},{"department":"Risaralda","municipality":"Pereira","code":"COXX00038","station":"El P\u00c3\u00adlamo","latitude":"4.866666666666667","longitude":"-75.8","altitude":"1113"},{"department":"Risaralda","municipality":"Pereira","code":"COXX00039","station":"La Catalina","latitude":"4.75","longitude":"-75.73333333333333","altitude":"1321"},{"department":"Risaralda","municipality":"Pereira","code":"COXX00040","station":"El Cedral","latitude":"4.7","longitude":"-75.53333333333333","altitude":"2120"},{"department":"Risaralda","municipality":"Santa Rosa de Cabal","code":"COXX00041","station":"El Jazm\u00c3\u00adn","latitude":"4.916666666666667","longitude":"-75.61666666666666","altitude":"1635"},{"department":"Santander","municipality":"Floridablanca","code":"COXX00042","station":"San Antonio","latitude":"7.1","longitude":"-73.06666666666666","altitude":"1539"},{"department":"Santander","municipality":"Los Santos","code":"COXX00043","station":"El Roble","latitude":"6.866666666666667","longitude":"-73.05","altitude":"1646"},{"department":"Santander","municipality":"Socorro","code":"COXX00044","station":"Alberto Santos","latitude":"6.5","longitude":"-73.21666666666667","altitude":"1499"},{"department":"Tolima","municipality":"Chaparral","code":"COXX00045","station":"La Aldea","latitude":"3.683611111111111","longitude":"-75.63388888888889","altitude":"1635"},{"department":"Tolima","municipality":"Fresno","code":"COXX00046","station":"Tricontinental","latitude":"5.15","longitude":"-75.0","altitude":"1269"},{"department":"Tolima","municipality":"Ibagu\u00c3\u00a9","code":"COXX00047","station":"Chapet\u00c3\u00b3n","latitude":"4.466666666666667","longitude":"-75.26666666666667","altitude":"1353"},{"department":"Tolima","municipality":"L\u00c3\u00adbano","code":"COXX00048","station":"La Trinidad","latitude":"4.9","longitude":"-75.03333333333333","altitude":"1456"},{"department":"Tolima","municipality":"Villarrica","code":"COXX00049","station":"El Tucuy","latitude":"3.966666666666667","longitude":"-74.58333333333333","altitude":"1452"},{"department":"Valle","municipality":"Alcal\u00c3\u00a1","code":"COXX00050","station":"Arturo G\u00c3\u00b3mez","latitude":"4.666666666666667","longitude":"-75.78333333333333","altitude":"1259"},{"department":"Valle","municipality":"Caicedonia","code":"COXX00051","station":"Venecia","latitude":"4.333333333333333","longitude":"-75.83333333333333","altitude":"1168"},{"department":"Valle","municipality":"El Cairo","code":"COXX00052","station":"Alb\u00c3\u00a1n","latitude":"4.783333333333333","longitude":"-76.18333333333334","altitude":"1510"},{"department":"Valle","municipality":"Restrepo","code":"COXX00053","station":"Julio Fern\u00c3\u00a1ndez","latitude":"3.816666666666666","longitude":"-76.53333333333333","altitude":"1381"},{"department":"Valle","municipality":"Sevilla","code":"COXX00054","station":"La Sirena","latitude":"4.283333333333333","longitude":"-75.9","altitude":"1519"},{"department":"Valle","municipality":"Trujillo","code":"COXX00055","station":"Manuel M. Mallarino","latitude":"4.216666666666667","longitude":"-76.31666666666666","altitude":"1331"},{"department":"Caldas","municipality":"Manizales","code":"COXX00056","station":"Agronom\u00c3\u00ada","latitude":"5.05","longitude":"-75.5","altitude":"2088"},{"department":"Huila","municipality":"La Plata","code":"COXX00057","station":"Sim\u00c3\u00b3n Campos","latitude":"2.350277777777778","longitude":"-75.88388888888889","altitude":"1754"},{"department":"Huila","municipality":"Pitalito","code":"COXX00058","station":"La Cascada","latitude":"1.833333333333333","longitude":"-76.15","altitude":"1368"},{"department":"Caldas","municipality":"Salamina","code":"COXX00059","station":"El Cipr\u00c3\u00a9s","latitude":"5.433333333333334","longitude":"-75.5","altitude":"1877"},{"department":"Tolima","municipality":"Planadas","code":"COXX00060","station":"El Rub\u00c3\u00ad","latitude":"3.116666666666667","longitude":"-75.66666666666667","altitude":"1725"},{"department":"Cundinamarca","municipality":"Sasaima","code":"COXX00061","station":"El Mirador","latitude":"4.950277777777778","longitude":"-74.40055555555556","altitude":"1683"},{"department":"Magdalena","municipality":"Ci\u00c3\u00a9naga","code":"COXX00062","station":"Agroberl\u00c3\u00adn","latitude":"10.80027777777778","longitude":"-74.01722222222222","altitude":"1290"}]